City_ID,City,Lat,Lng,Max Temp,Humidity,Cloudiness,Windspeed,Country,Date
0,tasiilaq,65.61,-37.64,28.4,79,100,27.51,GL,1580007324
1,bryan,30.67,-96.37,61.0,77,90,4.7,US,1580007478
2,ushuaia,-54.8,-68.3,46.4,75,75,23.04,AR,1580007289
3,noumea,-22.28,166.46,91.4,49,75,14.99,NC,1580006898
4,jamestown,42.1,-79.24,33.8,97,90,6.93,US,1580007205
5,minab,27.15,57.08,48.2,100,40,4.7,IR,1580007479
6,thunder bay,48.4,-89.32,30.99,80,90,3.36,CA,1580007356
7,matamoros,25.53,-103.25,64.4,52,75,7.99,MX,1580007480
8,cameron park,38.67,-120.99,57.2,93,90,3.62,US,1580007480
9,la ronge,55.1,-105.28,23.0,92,90,6.93,CA,1580007480
10,barrow,71.29,-156.79,-20.2,75,75,9.17,US,1580007193
11,hobart,-42.88,147.33,72.0,35,40,18.34,AU,1580007437
12,hovd,48.01,91.64,9.9,55,100,1.63,MN,1580007363
13,mataura,-46.19,168.86,77.65,58,64,0.58,NZ,1580007481
14,ginda,30.69,78.49,43.03,41,0,4.29,IN,1580007481
15,aleksandrov gay,50.15,48.57,33.85,83,98,24.94,RU,1580007482
16,ossora,59.24,163.07,32.81,87,100,30.65,RU,1580007402
17,yellowknife,62.46,-114.35,10.4,85,90,6.93,CA,1580007264
18,olafsvik,64.89,-23.71,31.23,82,77,15.55,IS,1580007364
19,puri,19.8,85.85,66.2,82,0,4.18,IN,1580007482
20,hartselle,34.44,-86.94,36.0,87,1,2.93,US,1580007483
21,lorengau,-2.02,147.27,84.22,71,85,6.04,PG,1580007483
22,tual,-5.67,132.75,85.28,66,100,9.6,ID,1580007483
23,mago,53.25,140.18,-12.46,84,0,4.65,RU,1580007483
24,cape town,-33.93,18.42,60.01,87,75,2.24,ZA,1580007483
25,nome,64.5,-165.41,-16.6,82,1,8.72,US,1580007484
26,sao filipe,14.9,-24.5,73.94,63,21,18.75,CV,1580007355
27,chuy,-33.7,-53.46,65.59,80,3,5.46,UY,1580007191
28,saskylakh,71.92,114.08,-20.51,93,99,16.46,RU,1580007484
29,puerto ayora,-0.74,-90.35,77.0,34,54,1.01,EC,1580007484
30,viedma,-40.81,-63.0,64.29,50,91,15.21,AR,1580007485
31,leningradskiy,69.38,178.42,-12.55,96,98,4.12,RU,1580007485
32,port elizabeth,-33.92,25.57,68.0,88,40,21.92,ZA,1580007222
33,port alfred,-33.59,26.89,66.0,98,80,5.99,ZA,1580007244
34,esperance,-33.87,121.9,80.6,44,95,5.82,AU,1580006894
35,punta arenas,-53.15,-70.92,48.2,70,75,25.28,CL,1580007295
36,tuktoyaktuk,69.45,-133.04,-13.0,75,90,25.28,CA,1580007270
37,rikitea,-23.12,-134.97,79.11,77,0,10.22,PF,1580007486
38,sibolga,1.74,98.78,86.38,63,0,1.19,ID,1580007228
39,hithadhoo,-0.6,73.08,82.49,77,100,9.75,MV,1580007281
40,hofn,64.25,-15.21,38.97,86,82,16.04,IS,1580007487
41,khatanga,71.97,102.5,-23.94,96,22,2.64,RU,1580007487
42,aklavik,68.22,-135.01,-14.8,68,90,18.34,CA,1580007242
43,plettenberg bay,-34.05,23.37,64.22,87,100,17.16,ZA,1580007487
44,rexburg,43.83,-111.79,36.0,80,90,7.29,US,1580007488
45,isangel,-19.55,169.27,78.8,83,75,5.82,VU,1580007226
46,tuatapere,-46.13,167.68,65.64,51,98,4.76,NZ,1580007333
47,kavieng,-2.57,150.8,84.87,72,48,11.7,PG,1580007488
48,hermanus,-34.42,19.23,57.0,98,83,7.0,ZA,1580007488
49,suntar,62.14,117.63,7.9,94,100,8.12,RU,1580007489
50,san miguel,13.48,-88.18,73.81,71,59,1.9,SV,1580007489
51,mar del plata,-38.0,-57.56,66.2,59,0,8.05,AR,1580007489
52,eirunepe,-6.66,-69.87,77.27,74,38,1.88,BR,1580007489
53,kaitangata,-46.28,169.85,68.0,65,5,10.45,NZ,1580007328
54,arraial do cabo,-22.97,-42.03,75.16,82,0,6.76,BR,1580007490
55,verkhoyansk,67.54,133.38,-43.19,93,18,0.94,RU,1580007490
56,nouadhibou,20.93,-17.03,64.4,68,100,20.8,MR,1580007364
57,kapaa,22.08,-159.32,78.8,65,40,6.93,US,1580007491
58,yamada,39.47,141.95,36.73,41,28,2.77,JP,1580007491
59,dikson,73.51,80.55,-5.84,95,100,5.39,RU,1580007492
60,praya,14.92,-23.51,77.0,47,75,12.75,CV,1580007236
61,copiapo,-27.37,-70.33,68.0,77,0,4.7,CL,1580007492
62,padang,-0.95,100.35,77.05,87,93,1.16,ID,1580007316
63,bambous virieux,-20.34,57.76,77.0,78,75,11.41,MU,1580007300
64,bredasdorp,-34.53,20.04,62.6,72,68,18.34,ZA,1580007277
65,clyde river,70.47,-68.59,-23.8,67,75,14.99,CA,1580007298
66,atuona,-9.8,-139.03,80.74,77,74,13.8,PF,1580007494
67,lavrentiya,65.58,-171.0,-13.47,77,0,3.15,RU,1580007287
68,vaini,-21.2,-175.2,80.6,88,75,13.87,TO,1580007264
69,bethel,41.37,-73.41,46.99,100,90,3.36,US,1580007494
70,broome,42.25,-75.83,35.01,99,90,6.93,US,1580007247
71,tungor,53.38,142.96,-9.99,85,0,19.69,RU,1580007495
72,odweyne,9.41,45.06,65.93,78,99,20.47,SO,1580007495
73,provideniya,64.38,-173.3,-5.44,69,0,3.4,RU,1580007495
74,east london,-33.02,27.91,73.45,84,38,20.69,ZA,1580007206
75,kodiak,57.79,-152.41,17.6,61,90,19.46,US,1580007304
76,bluff,-46.6,168.33,66.49,52,57,8.52,NZ,1580007496
77,saint-philippe,-21.36,55.77,73.4,83,90,9.17,RE,1580007199
78,bengkulu,-3.8,102.27,87.44,58,100,2.1,ID,1580007496
79,shubarkuduk,49.14,56.49,29.28,95,100,18.68,KZ,1580007496
80,tera,14.01,0.75,68.4,9,45,11.14,NE,1580007496
81,mayna,54.11,47.62,24.51,91,100,19.6,RU,1580007497
82,alta floresta,-9.88,-56.09,71.01,96,100,3.47,BR,1580007497
83,goderich,43.75,-81.72,36.0,92,100,3.0,CA,1580007323
84,maceio,-9.67,-35.74,77.0,94,75,5.82,BR,1580007497
85,lardos,36.09,28.02,52.0,71,87,3.36,GR,1580007497
86,talnakh,69.49,88.4,5.0,77,75,11.18,RU,1580007498
87,ancud,-41.87,-73.82,59.0,87,76,4.7,CL,1580007498
88,andros town,24.7,-77.77,71.6,83,40,4.7,BS,1580007498
89,khash,28.22,61.22,42.93,77,0,5.06,IR,1580007498
90,cabo san lucas,22.89,-109.91,69.01,77,75,3.36,MX,1580007493
91,thompson,55.74,-97.86,15.8,92,90,2.24,CA,1580007202
92,rio gallegos,-51.62,-69.22,50.0,53,0,20.8,AR,1580007296
93,cidreira,-30.18,-50.21,75.56,68,74,14.32,BR,1580007499
94,los llanos de aridane,28.66,-17.92,60.8,55,29,6.93,ES,1580007499
95,todi,42.78,12.4,48.0,100,100,2.24,IT,1580007499
96,castro,-24.79,-50.01,61.63,93,0,2.84,BR,1580007499
97,zeya,53.75,127.27,-16.19,89,18,3.58,RU,1580007500
98,lebu,-37.62,-73.65,61.23,85,0,7.78,CL,1580007320
99,huarmey,-10.07,-78.15,76.44,62,100,4.16,PE,1580007285
100,sao joao da barra,-21.64,-41.05,73.27,90,100,5.39,BR,1580007289
101,bayan,46.08,127.4,19.99,39,7,9.01,CN,1580007500
102,upernavik,72.79,-56.15,-14.24,94,100,7.61,GL,1580007501
103,nurota,40.56,65.69,26.6,92,94,0.98,UZ,1580007501
104,tiksi,71.69,128.87,-28.1,67,0,5.19,RU,1580007501
105,saint anthony,45.02,-93.22,28.99,86,1,3.36,US,1580007349
106,chokurdakh,70.63,147.92,-22.23,86,100,5.99,RU,1580007501
107,atar,20.52,-13.05,70.45,24,100,9.01,MR,1580007502
108,fort frances,48.6,-93.4,25.0,85,90,3.36,CA,1580007502
109,balaguer,41.79,0.81,48.2,87,75,8.05,ES,1580007502
110,pevek,69.7,170.31,-9.44,96,100,0.45,RU,1580007502
111,albany,42.6,-73.97,39.2,100,90,3.36,US,1580007502
112,haverfordwest,51.8,-4.97,46.0,96,60,7.0,GB,1580007503
113,ketchikan,55.34,-131.65,46.4,87,90,23.04,US,1580007503
114,muzhi,65.37,64.67,-7.01,99,95,2.35,RU,1580007503
115,camacha,33.08,-16.33,59.0,77,20,8.05,PT,1580007503
116,lata,40.16,-8.33,50.0,100,40,4.7,PT,1580007504
117,nikolskoye,59.7,30.79,30.99,86,20,4.47,RU,1580007285
118,avarua,-21.21,-159.78,84.2,83,100,11.41,CK,1580007504
119,meiringen,46.73,8.18,32.0,86,75,1.12,CH,1580007505
120,ust-maya,60.42,134.53,-37.53,94,48,1.16,RU,1580007505
121,aykhal,66.0,111.5,-27.4,74,100,6.71,RU,1580007418
122,valparaiso,-33.04,-71.63,62.6,93,62,3.36,CL,1580007505
123,sitka,57.05,-135.33,46.4,70,90,24.16,US,1580007313
124,hobyo,5.35,48.53,77.79,81,100,10.33,SO,1580007506
125,lazaro cardenas,17.96,-102.2,73.53,79,48,1.97,MX,1580007506
126,lhokseumawe,5.18,97.15,79.18,69,100,3.44,ID,1580007506
127,carnarvon,-24.87,113.63,84.2,58,13,19.46,AU,1580007506
128,yumen,40.28,97.2,20.57,61,0,1.07,CN,1580007305
129,ribeira grande,38.52,-28.7,54.21,74,99,5.59,PT,1580007507
130,dhidhdhoo,6.88,73.1,82.02,65,100,4.36,MV,1580007303
131,butaritari,3.07,172.79,85.51,72,100,9.89,KI,1580007507
132,kizukuri,40.81,140.39,35.01,63,75,6.93,JP,1580007508
133,salalah,17.02,54.09,77.0,78,75,3.36,OM,1580007235
134,mitu,1.2,-70.17,75.96,88,85,1.61,CO,1580007508
135,batemans bay,-35.72,150.18,93.99,81,0,1.99,AU,1580007274
136,waingapu,-9.66,120.26,83.86,74,61,6.71,ID,1580007283
137,sorland,67.67,12.69,35.04,74,100,29.84,NO,1580007368
138,havre-saint-pierre,50.23,-63.6,15.8,85,90,2.24,CA,1580007361
139,wanning,18.8,110.4,62.89,86,100,11.99,CN,1580007509
140,cayenne,4.93,-52.33,75.2,94,90,9.17,GF,1580007345
141,henties bay,-22.12,14.28,62.01,96,0,2.66,NA,1580007358
142,sur,22.57,59.53,67.05,83,7,5.73,OM,1580007511
143,guanare,9.04,-69.74,76.21,59,4,2.01,VE,1580007511
144,narsaq,60.92,-46.05,12.2,72,96,5.82,GL,1580007367
145,new norfolk,-42.78,147.06,72.0,35,40,18.34,AU,1580007513
146,samarai,-10.62,150.67,84.76,74,79,4.03,PG,1580007513
147,gat,31.61,34.76,45.0,86,0,2.24,IL,1580007373
148,naryan-mar,67.67,53.09,-9.47,100,100,6.96,RU,1580007381
149,musoma,-1.5,33.8,66.2,93,75,5.41,TZ,1580007514
150,sinnamary,5.38,-52.95,79.95,83,100,18.81,GF,1580007514
151,victoria,22.29,114.16,62.01,87,40,10.29,HK,1580007500
152,beringovskiy,63.05,179.32,14.74,85,100,5.86,RU,1580007311
153,bucyrus,40.81,-82.98,34.0,97,90,10.29,US,1580007515
154,college,64.86,-147.8,-9.99,74,1,4.59,US,1580007515
155,busselton,-33.65,115.33,91.99,29,97,5.23,AU,1580007286
156,haines junction,60.75,-137.51,-14.78,99,100,5.93,CA,1580007515
157,rock springs,41.59,-109.2,30.2,80,90,10.29,US,1580007515
158,port lincoln,-34.73,135.87,74.1,54,32,10.18,AU,1580007516
159,roma,43.21,-75.46,35.01,100,90,5.82,US,1580007516
160,kenora,49.82,-94.43,21.2,92,90,2.24,CA,1580007516
161,evensk,61.95,159.23,15.19,87,100,21.16,RU,1580007516
162,guiratinga,-16.35,-53.76,72.3,87,97,1.7,BR,1580007516
163,hasaki,35.73,140.83,43.0,93,75,8.05,JP,1580007517
164,soavinandriana,-19.17,46.73,65.62,85,83,4.23,MG,1580007517
165,khandyga,62.67,135.6,-40.04,92,0,0.67,RU,1580007517
166,texas city,29.38,-94.9,64.99,72,90,19.46,US,1580007517
167,port macquarie,-31.43,152.92,91.99,52,32,13.87,AU,1580007517
168,vila franca do campo,37.72,-25.43,57.2,82,40,3.36,PT,1580007518
169,baherden,38.44,57.43,29.28,80,0,9.48,TM,1580007388
170,jinka,5.65,36.65,70.83,68,100,4.34,ET,1580007518
171,vanimo,-2.67,141.3,83.39,82,61,16.02,PG,1580007328
172,severo-kurilsk,50.68,156.12,18.86,92,100,40.24,RU,1580007519
173,billings,45.78,-108.5,39.99,41,75,11.41,US,1580007407
174,kahului,20.89,-156.47,82.4,57,20,14.99,US,1580007519
175,yatou,37.15,122.38,40.77,62,100,18.5,CN,1580007519
176,qaanaaq,77.48,-69.36,-12.03,43,55,4.43,GL,1580007520
177,garissa,-0.45,39.64,76.91,88,100,1.28,KE,1580007520
178,bambanglipuro,-7.95,110.28,85.82,65,2,8.81,ID,1580007521
179,vestmanna,62.16,-7.17,44.6,93,100,19.46,FO,1580007521
180,sangar,63.92,127.47,-35.7,92,0,4.83,RU,1580007521
181,constitucion,-35.33,-72.42,63.21,67,0,5.7,CL,1580007521
182,kruisfontein,-34.0,24.73,64.71,87,89,22.73,ZA,1580007521
183,nantucket,41.28,-70.1,48.99,93,90,19.46,US,1580007447
184,beyneu,45.32,55.2,35.19,84,99,22.97,KZ,1580007522
185,brigantine,39.41,-74.36,45.0,75,1,14.99,US,1580007402
186,zwedru,6.07,-8.13,71.69,99,47,1.99,LR,1580007236
187,airai,-8.93,125.41,82.2,63,48,3.29,TL,1580007307
188,carutapera,-1.2,-46.02,82.24,81,100,19.93,BR,1580007523
189,bathsheba,13.22,-59.52,77.0,83,75,1.12,BB,1580007280
190,mao,39.89,4.27,55.4,93,70,6.93,ES,1580007523
191,ostrovnoy,68.05,39.51,1.87,98,100,10.38,RU,1580007523
192,baghdad,33.34,44.4,42.8,81,0,8.05,IQ,1580007230
193,muravlenko,63.79,74.52,-0.24,95,88,9.53,RU,1580007524
194,lompoc,34.64,-120.46,59.0,93,90,8.05,US,1580007323
195,gra liyia,35.02,25.68,51.01,87,95,5.55,GR,1580007524
196,yerbogachen,61.28,108.01,24.85,88,100,16.87,RU,1580007524
197,shimoda,34.67,138.95,44.6,93,75,20.8,JP,1580007525
198,bang saphan,11.21,99.51,84.2,74,66,2.24,TH,1580007525
199,derzhavinsk,51.1,66.32,17.47,90,100,27.81,KZ,1580007525
200,mwense,-10.38,28.7,66.34,99,100,2.08,ZM,1580007525
201,mehamn,71.04,27.85,18.21,76,100,20.45,NO,1580007526
202,kununurra,-15.77,128.73,91.4,52,66,1.12,AU,1580007345
203,raudeberg,61.99,5.14,45.0,100,100,24.16,NO,1580007526
204,rochegda,62.8,43.25,-4.95,99,76,4.85,RU,1580007526
205,palmer,42.16,-72.33,46.0,93,90,5.82,US,1580007527
206,luderitz,-26.65,15.16,66.2,88,0,11.41,NA,1580007321
207,lianran,24.92,102.48,35.6,74,90,2.24,CN,1580007527
208,caravelas,-17.71,-39.25,79.09,84,100,19.69,BR,1580007233
209,acapulco,16.86,-99.89,78.8,74,20,4.7,MX,1580007244
210,port shepstone,-30.74,30.45,69.04,73,2,3.31,ZA,1580007370
211,dingle,11.0,122.67,84.15,73,31,5.21,PH,1580007528
212,nizwa,22.93,57.53,58.89,84,71,9.44,OM,1580007528
213,torbay,47.67,-52.73,19.0,78,5,16.11,CA,1580007244
214,tautira,-17.73,-149.15,86.0,70,40,8.05,PF,1580007528
215,kavaratti,10.57,72.64,78.8,83,20,2.28,IN,1580007529
216,songea,-10.68,35.65,68.0,94,75,3.36,TZ,1580007529
217,auchi,7.07,6.27,65.41,18,60,0.65,NG,1580007529
218,port blair,11.67,92.75,77.85,70,78,13.78,IN,1580007233
219,klaksvik,62.23,-6.59,44.6,93,100,19.46,FO,1580007530
220,hilo,19.73,-155.09,80.6,57,90,3.36,US,1580007530
221,marawi,8.0,124.29,82.99,84,0,4.0,PH,1580007530
222,lasa,46.62,10.7,33.01,92,100,2.24,IT,1580007531
223,beziers,43.35,3.22,55.4,93,93,9.17,FR,1580007531
224,umm lajj,25.02,37.27,48.34,32,0,12.75,SA,1580007531
225,iquitos,-3.75,-73.25,78.8,83,75,6.93,PE,1580007532
226,pringsewu,-5.36,104.97,83.5,73,100,2.01,ID,1580007532
227,kamskiye polyany,55.43,51.42,24.8,85,40,6.71,RU,1580007533
228,marsaxlokk,35.84,14.54,59.0,93,20,8.05,MT,1580007533
229,saint george,37.1,-113.58,55.4,54,1,0.96,US,1580007284
230,orsha,54.52,30.41,29.7,93,1,9.01,BY,1580007533
231,seymchan,62.88,152.43,-25.19,95,100,9.64,RU,1580007534
232,husavik,66.04,-17.34,28.4,92,90,10.29,IS,1580007269
233,rush,53.52,-6.09,48.99,70,75,11.41,IE,1580007534
234,saiki,32.95,131.9,50.0,81,75,8.05,JP,1580007534
235,babu,24.42,111.52,50.04,77,61,8.63,CN,1580007534
236,vestmannaeyjar,63.44,-20.27,33.46,96,100,15.32,IS,1580007301
237,puerto ayacucho,5.66,-67.62,77.61,67,69,1.12,VE,1580007535
238,saquena,-4.67,-73.52,75.43,95,100,1.45,PE,1580007535
239,kandrian,-6.22,149.55,87.1,66,51,7.18,PG,1580007535
240,kaputa,-8.47,29.66,66.0,89,100,2.62,ZM,1580007535
241,soyo,-6.13,12.37,80.44,83,98,9.75,AO,1580007536
242,sao jose da coroa grande,-8.9,-35.15,81.54,84,40,15.19,BR,1580007536
243,yazman,29.12,71.74,60.37,52,0,8.7,PK,1580007536
244,puerto escondido,15.85,-97.07,80.6,74,20,1.9,MX,1580007536
245,cabedelo,-6.98,-34.83,80.6,88,20,5.82,BR,1580007537
246,dwarka,22.24,68.97,71.55,70,0,9.46,IN,1580007537
247,coihaique,-45.58,-72.07,59.0,51,5,5.82,CL,1580007373
248,san juan,-31.54,-68.54,90.91,24,76,15.93,AR,1580007537
249,aksu,41.12,80.26,24.3,71,100,1.88,CN,1580007538
250,motygino,58.18,94.76,15.55,94,99,5.86,RU,1580007538
251,westport,41.14,-73.36,48.0,93,90,10.29,US,1580007538
252,isla mujeres,21.23,-86.73,73.4,78,20,6.93,MX,1580007538
253,prosvet,55.57,65.08,13.64,94,94,10.18,RU,1580007538
254,amahai,-3.33,128.92,83.23,75,100,4.23,ID,1580007330
255,verkhnevilyuysk,63.45,120.32,-18.2,96,98,7.9,RU,1580007288
256,danville,36.59,-79.39,41.0,74,1,4.65,US,1580007539
257,paamiut,61.99,-49.67,18.12,64,86,23.8,GL,1580007394
258,ekhabi,53.51,142.97,-9.99,85,0,19.69,RU,1580007540
259,buala,-8.14,159.59,88.57,59,0,2.08,SB,1580007540
260,longyearbyen,78.22,15.64,1.4,54,7,2.06,SJ,1580007515
261,meghri,38.9,46.24,12.97,60,0,8.63,AM,1580007540
262,faanui,-16.48,-151.75,83.16,72,62,8.79,PF,1580007540
263,ilulissat,69.22,-51.1,8.6,46,92,10.29,GL,1580007540
264,mahebourg,-20.41,57.7,77.0,78,75,11.41,MU,1580007303
265,banatsko novo selo,44.99,20.78,37.4,84,22,3.36,RS,1580007541
266,cockburn town,21.46,-71.14,76.39,74,0,12.33,TC,1580007375
267,biloela,-24.42,150.5,86.52,55,100,11.79,AU,1580007541
268,linjiang,41.81,126.91,21.92,70,0,3.06,CN,1580007364
269,chamonix-mont-blanc,45.92,6.87,36.0,76,90,1.12,FR,1580007542
270,pacifica,37.61,-122.49,61.0,93,90,4.7,US,1580007542
271,grande prairie,55.17,-118.8,10.4,92,75,5.82,CA,1580007371
272,malanje,-9.54,16.34,66.0,99,100,4.16,AO,1580007542
273,srednekolymsk,67.45,153.68,-23.49,92,100,2.33,RU,1580007542
274,saldanha,-33.01,17.94,59.0,93,83,8.05,ZA,1580007525
275,elko,41.0,-115.5,39.2,69,20,2.71,US,1580007329
276,ballina,-28.87,153.57,87.01,65,75,17.22,AU,1580007543
277,byron bay,-28.65,153.62,87.01,74,90,10.29,AU,1580007544
278,ust-ishim,57.69,71.17,10.51,93,100,7.67,RU,1580007544
279,paoua,7.24,16.44,58.89,19,19,2.44,CF,1580007544
280,ponta do sol,32.67,-17.1,57.2,71,20,4.7,PT,1580007336
281,namatanai,-3.67,152.43,85.87,71,67,12.68,PG,1580007545
282,moyale,3.52,39.06,74.25,67,100,4.5,KE,1580007545
283,el astillero,43.4,-3.82,46.99,87,0,6.44,ES,1580007545
284,aviles,43.55,-5.92,48.0,75,0,11.41,ES,1580007545
285,rundu,-17.93,19.77,71.6,43,0,3.36,NA,1580007545
286,broken hill,-31.95,141.43,89.6,19,0,12.75,AU,1580007546
287,tooele,40.53,-112.3,39.0,100,90,7.34,US,1580007493
288,launceston,-41.45,147.17,75.99,40,40,24.16,AU,1580007305
289,grindavik,63.84,-22.43,35.6,72,90,13.87,IS,1580007546
290,cap-aux-meules,47.38,-61.86,24.8,85,75,4.7,CA,1580007422
291,miranda de ebro,42.69,-2.95,46.99,100,75,2.24,ES,1580007547
292,burnie,-41.07,145.92,72.0,53,100,15.01,AU,1580007547
293,tokur,53.13,132.9,-11.31,93,100,3.04,RU,1580007547
294,chihuahua,28.5,-106.0,59.0,28,40,1.45,MX,1580007420
295,camana,-16.62,-72.71,67.42,84,100,2.62,PE,1580007548
296,east islip,40.73,-73.19,46.99,93,90,10.29,US,1580007548
297,mersing,2.43,103.84,81.21,72,83,7.07,MY,1580007548
298,eregli,37.51,34.05,31.87,46,0,2.95,TR,1580007548
299,koslan,63.46,48.9,-6.93,97,95,3.27,RU,1580007548
300,palwal,28.15,77.33,61.0,93,0,3.56,IN,1580007549
301,pisco,-13.7,-76.22,73.4,83,90,17.22,PE,1580007251
302,richards bay,-28.78,32.04,77.38,81,1,26.22,ZA,1580007343
303,nechi,8.09,-74.78,75.16,94,34,4.43,CO,1580007549
304,petropavlovsk-kamchatskiy,53.05,158.65,28.4,68,40,4.47,RU,1580007549
305,scarborough,54.28,-0.4,44.6,100,89,9.17,GB,1580007309
306,porbandar,21.64,69.61,57.2,71,20,2.24,IN,1580007550
307,marzuq,14.4,46.47,60.89,61,7,9.31,YE,1580007551
308,luena,-11.78,19.92,63.81,98,100,3.6,AO,1580007521
309,beloha,-25.17,45.05,67.44,85,0,10.22,MG,1580007552
310,teocaltiche,21.43,-102.58,60.8,51,75,5.82,MX,1580007552
311,souillac,-20.52,57.52,77.0,78,75,11.41,MU,1580007553
312,kampot,10.62,104.18,86.0,58,20,2.86,KH,1580007361
313,fare,-16.7,-151.02,83.05,74,26,10.67,PF,1580007553
314,port antonio,18.18,-76.46,77.0,78,75,10.29,JM,1580007376
315,tolbazy,54.02,55.88,19.4,92,90,2.24,RU,1580007554
316,leshan,29.56,103.76,50.74,56,82,0.85,CN,1580007554
317,mount darwin,-16.77,31.58,62.74,98,60,0.09,ZW,1580007554
318,salinopolis,-0.61,-47.36,82.81,81,100,12.39,BR,1580007554
319,meulaboh,4.14,96.13,81.23,79,100,3.94,ID,1580007554
320,ginir,7.13,40.7,60.08,81,100,0.81,ET,1580007555
321,cherskiy,68.75,161.3,-17.93,96,100,2.71,RU,1580007309
322,korla,41.76,86.15,15.31,46,0,1.63,CN,1580007342
323,alice springs,-23.7,133.88,95.0,10,0,14.99,AU,1580007555
324,kushmurun,52.45,64.63,20.43,93,100,24.49,KZ,1580007555
325,avera,33.19,-82.53,45.0,75,1,8.05,US,1580007265
326,nicoya,10.15,-85.45,78.8,61,0,3.36,CR,1580007556
327,lichinga,-13.31,35.24,64.4,100,75,11.41,MZ,1580007556
328,olinda,-8.01,-34.86,82.4,78,40,8.05,BR,1580007556
329,port-gentil,-0.72,8.78,83.1,79,2,11.14,GA,1580007556
330,hearst,49.68,-83.67,24.75,96,100,6.76,CA,1580007335
331,hranice,49.55,17.73,30.0,92,90,17.22,CZ,1580007557
332,georgetown,5.41,100.34,86.0,66,20,6.93,MY,1580007365
333,melfort,52.87,-104.62,23.0,92,90,11.41,CA,1580007557
334,bubaque,11.28,-15.83,77.86,70,92,7.76,GW,1580007558
335,douentza,15.0,-2.95,71.22,10,94,7.27,ML,1580007558
336,port hardy,50.7,-127.42,46.4,81,90,23.04,CA,1580007558
337,geraldton,-28.77,114.6,82.4,58,15,12.75,AU,1580007381
338,luanda,-8.84,13.23,80.6,78,40,2.24,AO,1580007371
339,mount isa,-20.73,139.5,80.6,88,75,5.82,AU,1580007346
340,mabaruma,8.2,-59.78,70.07,98,100,2.35,GY,1580007559
341,lisburn,54.52,-6.04,46.99,81,100,18.34,GB,1580007559
342,chengde,40.97,117.94,24.62,54,0,2.17,CN,1580007559
343,horta,38.53,-28.63,54.21,74,99,5.59,PT,1580007559
344,norman wells,65.28,-126.83,-13.0,62,20,13.87,CA,1580007359
345,hamilton,39.18,-84.53,34.0,86,90,11.41,US,1580007424
346,touros,-5.2,-35.46,80.6,88,75,4.7,BR,1580007560
347,qostanay,53.17,63.58,21.2,100,90,22.37,KZ,1580007361
348,rosetta,31.4,30.42,50.0,87,40,3.36,EG,1580007561
349,hay river,60.82,-115.8,14.0,85,90,6.93,CA,1580007561
350,alofi,-19.06,-169.92,82.4,83,22,9.17,NU,1580007561
351,erenhot,43.65,111.98,18.23,75,0,7.18,CN,1580007561
352,vostok,46.49,135.88,5.63,77,51,6.69,RU,1580007344
353,umm kaddadah,13.6,26.69,51.08,32,24,13.15,SD,1580007304
354,khor,47.89,134.95,0.55,87,95,13.89,RU,1580007562
355,rorvik,64.86,11.24,41.0,95,100,27.22,NO,1580007562
356,dunedin,-45.87,170.5,68.0,66,0,24.14,NZ,1580007341
357,bakchar,57.02,82.07,6.55,92,100,10.25,RU,1580007562
358,clarence town,-32.58,151.78,102.0,37,40,11.41,AU,1580007562
359,katsuura,35.13,140.3,42.01,86,75,3.36,JP,1580007563
360,san patricio,19.22,-104.7,77.0,78,5,5.82,MX,1580007357
361,houston,29.76,-95.36,64.0,77,90,8.05,US,1580007563
362,klyavlino,54.26,52.03,11.77,100,96,0.96,RU,1580007563
363,dukat,62.55,155.55,-20.34,98,100,7.0,RU,1580007564
364,andenes,69.31,16.12,24.8,58,44,23.04,NO,1580007564
365,rajgarh,28.63,75.38,59.05,50,0,1.23,IN,1580007564
366,nemuro,43.32,145.57,19.4,48,20,12.75,JP,1580007564
367,liepaja,56.54,21.04,41.0,100,18,14.99,LV,1580007565
368,mafinga,-7.25,35.07,66.83,98,100,0.85,TZ,1580007565
369,gornozavodsk,58.38,58.32,10.83,96,100,1.97,RU,1580007565
370,hualmay,-11.1,-77.61,74.28,71,100,5.99,PE,1580007320
371,hit,33.64,42.83,44.6,67,0,10.63,IQ,1580007422
372,kalmunai,7.42,81.82,80.01,70,88,14.27,LK,1580007566
373,cherdyn,60.4,56.48,6.93,96,100,2.77,RU,1580007566
374,dzaoudzi,-12.79,45.27,77.0,94,100,4.7,YT,1580007566
375,mogadishu,2.04,45.34,81.23,82,100,23.13,SO,1580007566
376,severobaykalsk,55.65,109.32,18.82,90,100,2.62,RU,1580007566
377,am timan,11.03,20.28,56.32,21,36,6.35,TD,1580007567
378,concordia,-31.39,-58.02,77.0,84,0,5.01,AR,1580007567
379,redcar,54.62,-1.06,45.0,100,75,9.17,GB,1580007567
380,altamont,42.21,-121.74,42.01,91,100,8.16,US,1580007567
381,praia da vitoria,38.73,-27.07,53.6,87,20,3.94,PT,1580007567
382,kismayo,-0.36,42.55,80.13,88,67,9.98,SO,1580007568
383,cantagallo,7.38,-73.92,75.16,89,55,2.98,CO,1580007568
384,khani,41.96,42.96,28.4,92,0,3.36,GE,1580007568
385,kloulklubed,7.04,134.26,84.2,79,75,14.99,PW,1580007568
386,gorontalo,0.54,123.06,90.16,57,2,3.44,ID,1580007568
387,barao de melgaco,-16.19,-55.97,82.4,69,40,8.05,BR,1580007569
388,riviere-au-renard,49.0,-64.4,12.2,92,75,3.36,CA,1580007569
389,honiara,-9.43,159.95,89.6,66,20,6.93,SB,1580007308
390,laguna,38.42,-121.42,57.99,86,90,6.93,US,1580007374
391,marsa matruh,31.35,27.25,44.6,81,0,6.06,EG,1580007569
392,mount gambier,-37.83,140.77,68.0,64,90,14.99,AU,1580007331
393,awjilah,29.11,21.29,50.99,46,43,9.4,LY,1580007570
394,necochea,-38.55,-58.74,60.01,73,0,6.33,AR,1580007570
395,abu samrah,35.3,37.18,37.33,62,0,7.83,SY,1580007571
396,mariental,-24.63,17.97,71.6,19,0,5.79,NA,1580007571
397,nizhniy kuranakh,58.84,125.49,-2.27,96,88,1.25,RU,1580007571
398,woodward,36.43,-99.39,41.0,76,1,5.82,US,1580007572
399,huilong,31.81,121.66,53.01,99,100,1.99,CN,1580007573
400,te anau,-45.42,167.72,63.37,79,100,7.38,NZ,1580007574
401,rosehearty,57.7,-2.11,44.01,87,90,10.29,GB,1580007574
402,chapais,49.78,-74.85,24.8,79,90,10.29,CA,1580007362
403,moerai,-22.43,-151.33,81.54,75,96,9.31,PF,1580007574
404,boueni,-12.9,45.08,77.0,94,100,4.7,YT,1580007574
405,gotsu,35.0,132.22,53.6,62,75,4.7,JP,1580007575
406,saint-augustin,51.23,-58.65,14.79,79,40,10.8,CA,1580007575
407,parkes,-33.13,148.18,98.01,36,50,1.01,AU,1580007427
408,katangli,51.71,143.23,-1.48,84,0,11.36,RU,1580007575
409,emmett,43.87,-116.5,44.6,100,90,3.74,US,1580007418
410,beira,-19.84,34.84,73.4,94,54,4.7,MZ,1580007293
411,leh,34.17,77.58,-4.67,89,100,4.21,IN,1580007576
412,rocha,-34.48,-54.33,60.19,78,0,4.52,UY,1580007297
413,fortuna,40.6,-124.16,59.0,87,90,10.29,US,1580007577
414,chokwe,-24.53,32.98,72.91,77,27,4.29,MZ,1580007577
415,hirara,24.8,125.28,78.8,78,75,17.22,JP,1580007577
416,avon,41.45,-82.04,34.0,86,90,13.87,US,1580007577
417,north bend,43.41,-124.22,55.0,100,90,3.29,US,1580007577
418,revelstoke,50.98,-118.2,33.8,100,90,2.3,CA,1580007578
419,adamovka,51.52,59.94,24.17,94,100,21.68,RU,1580007578
420,ngunut,-8.11,112.02,82.94,74,64,6.78,ID,1580007578
421,healdsburg,38.61,-122.87,59.0,100,90,2.68,US,1580007578
422,okhotsk,59.38,143.3,-11.83,72,100,15.93,RU,1580007578
423,cornwall,45.02,-74.73,33.8,98,90,4.7,CA,1580007579
424,mangai,-4.05,19.53,71.01,80,99,1.61,CD,1580007579
425,schrobenhausen,48.55,11.27,35.01,90,75,2.24,DE,1580007579
426,muisne,0.6,-80.03,77.32,88,100,7.78,EC,1580007579
427,coquimbo,-29.95,-71.34,62.6,93,0,5.82,CL,1580007579
428,carndonagh,55.25,-7.27,46.04,90,100,18.14,IE,1580007580
429,ciudad dario,12.73,-86.12,78.8,61,20,6.93,NI,1580007580
430,tabou,4.42,-7.35,76.82,96,26,0.87,CI,1580007564
431,lapeer,43.05,-83.32,34.0,97,90,3.36,US,1580007580
432,kawalu,-7.38,108.21,81.43,68,79,4.29,ID,1580007580
433,mwinilunga,-11.74,24.43,63.66,97,100,0.54,ZM,1580007581
434,roebourne,-20.78,117.13,102.56,18,0,1.3,AU,1580007581
435,deputatskiy,69.3,139.9,-40.94,100,62,0.72,RU,1580007344
436,tucuman,-26.82,-65.22,82.4,69,67,6.93,AR,1580007581
437,ambovombe,-25.17,46.08,65.16,90,0,4.32,MG,1580007582
438,iqaluit,63.75,-68.51,-29.0,66,5,10.29,CA,1580007582
439,mnogovershinnyy,53.94,139.92,-9.89,83,4,9.98,RU,1580007578
440,tezu,27.92,96.17,59.7,41,0,2.26,IN,1580007582
441,nhulunbuy,-12.23,136.77,87.8,70,75,12.75,AU,1580007583
442,jais,26.25,81.53,54.14,63,0,4.99,IN,1580007583
443,ocamonte,6.34,-73.12,61.05,96,100,0.45,CO,1580007583
444,vila velha,-20.33,-40.29,71.6,94,75,2.24,BR,1580007338
445,okato,-39.2,173.88,77.0,77,13,8.99,NZ,1580007584
446,juneau,58.3,-134.42,32.0,96,90,6.93,US,1580007304
447,mendoza,-32.89,-68.83,87.8,33,20,3.36,AR,1580007584
448,trairi,-3.28,-39.27,75.9,94,100,2.84,BR,1580007584
449,oistins,13.07,-59.53,77.0,83,75,1.12,BB,1580007584
450,saint-joseph,-21.37,55.62,73.4,83,90,9.17,RE,1580007585
451,margate,51.38,1.39,46.0,100,90,10.29,GB,1580007585
452,sakakah,29.97,40.21,44.6,70,75,5.39,SA,1580007427
453,havelock,34.88,-76.9,50.0,71,1,5.82,US,1580007392
454,theunissen,-28.41,26.7,62.51,77,0,7.23,ZA,1580007585
455,ajdabiya,30.76,20.23,58.53,56,51,18.23,LY,1580007586
456,boende,-0.22,20.87,70.16,41,41,2.75,CD,1580007586
457,nuuk,64.18,-51.72,14.0,72,100,6.93,GL,1580007296
458,peleduy,59.63,112.74,22.46,79,100,15.17,RU,1580007586
459,nioro,13.35,-15.75,72.72,12,67,4.68,GM,1580007587
460,northam,51.03,-4.22,46.0,93,31,7.0,GB,1580007587
461,nuevitas,21.55,-77.26,68.0,94,42,8.05,CU,1580007587
462,salima,-13.78,34.46,71.8,85,100,7.83,MW,1580007587
463,lalin,42.72,-8.12,44.01,100,75,4.7,ES,1580007587
464,tondon,10.37,-13.35,64.27,84,42,2.35,GN,1580007588
465,anadyr,64.75,177.48,15.8,78,90,13.42,RU,1580007588
466,soyaniquilpan,19.98,-99.5,52.92,55,77,6.06,MX,1580007588
467,ewa beach,21.32,-158.01,82.4,65,20,9.17,US,1580007589
468,navahrudak,53.6,25.83,33.44,94,42,9.44,BY,1580007589
469,capanema,-1.2,-47.18,75.96,97,100,2.77,BR,1580007589
470,el campo,29.2,-96.27,64.4,77,90,9.17,US,1580007589
471,axim,4.87,-2.24,74.59,92,53,1.61,GH,1580007590
472,longyan,25.11,117.02,52.0,99,100,5.68,CN,1580007590
473,chunskiy,56.08,99.63,24.78,90,100,2.53,RU,1580007591
474,taltal,-25.4,-70.48,67.77,83,0,1.72,CL,1580007592
475,biltine,14.53,20.92,59.16,19,0,16.87,TD,1580007593
476,aguimes,27.91,-15.45,60.8,59,40,6.93,ES,1580007572
477,yar-sale,66.83,70.83,-8.99,100,83,3.53,RU,1580007593
478,logan,41.74,-111.83,37.99,87,90,5.86,US,1580007593
479,saquarema,-22.92,-42.51,75.2,73,0,2.24,BR,1580007594
480,hammerfest,70.66,23.68,19.4,67,40,24.16,NO,1580007594
481,esmeraldas,-19.76,-44.31,69.8,100,90,3.36,BR,1580007594
482,la palma,33.85,-118.05,64.4,82,75,5.82,US,1580007594
483,atasu,48.68,71.64,6.87,94,100,15.97,KZ,1580007594
484,peace river,56.25,-117.29,19.4,92,20,5.82,CA,1580007595
485,saint-pierre,-21.34,55.48,73.4,83,90,9.17,RE,1580007595
486,batagay,67.63,134.63,-40.83,92,0,1.97,RU,1580007595
487,saurimo,-9.66,20.39,66.31,94,100,6.29,AO,1580007595
488,kapit,2.02,112.93,83.7,71,90,3.13,MY,1580007595
489,guerrero negro,27.98,-114.06,62.11,78,0,9.37,MX,1580007413
490,kolpashevo,58.31,82.91,9.19,93,100,9.64,RU,1580007596
491,bushehr,28.97,50.84,53.6,62,40,11.41,IR,1580007597
492,reinosa,43.0,-4.14,46.99,87,0,2.82,ES,1580007597
493,general roca,-39.03,-67.58,80.6,32,73,13.87,AR,1580007383
494,karachi,24.91,67.08,57.2,93,0,4.27,PK,1580007441
495,kiama,-34.68,150.87,98.01,44,40,11.41,AU,1580007597
496,bozhou,33.88,115.77,39.52,59,100,11.99,CN,1580007598
497,berdigestyakh,62.1,126.7,-26.68,96,33,5.86,RU,1580007598
498,roald,62.58,6.13,46.4,81,100,18.34,NO,1580007598
499,beaverlodge,55.22,-119.44,10.4,92,75,5.82,CA,1580007598
500,belgrade,44.8,20.47,37.4,83,60,1.12,RS,1580007371
501,bilibino,68.05,166.44,-3.91,89,100,5.28,RU,1580007303
502,ilhabela,-23.78,-45.36,74.57,76,0,8.1,BR,1580007599
503,svetlaya,46.54,138.33,15.42,52,100,6.93,RU,1580007599
504,tsiroanomandidy,-18.77,46.03,68.05,85,97,3.89,MG,1580007600
505,namibe,-15.2,12.15,74.68,74,69,12.53,AO,1580007600
506,ovalle,-30.6,-71.2,64.33,70,36,0.25,CL,1580007554
507,san javier,37.81,-0.84,50.0,100,20,6.93,ES,1580007600
508,bandar-e anzali,37.47,49.46,42.1,66,0,6.02,IR,1580007601
509,rudnya,54.95,31.09,27.99,86,0,8.57,RU,1580007601
510,chicama,-7.84,-79.15,73.4,94,75,6.93,PE,1580007601
511,le vauclin,14.55,-60.84,77.0,88,50,2.24,MQ,1580007602
512,portobelo,9.55,-79.65,77.0,69,20,9.17,PA,1580007602
513,gazojak,41.19,61.4,28.99,69,2,9.57,TM,1580007603
514,sechura,-5.56,-80.82,74.41,86,100,9.78,PE,1580007603
515,surgut,61.25,73.42,3.2,84,20,6.71,RU,1580007603
516,taiobeiras,-15.81,-42.23,66.67,94,100,4.9,BR,1580007603
517,grand gaube,-20.01,57.66,77.0,78,75,11.41,MU,1580007310
518,moville,42.49,-96.07,27.0,100,90,5.82,US,1580007604
519,krynychky,48.38,34.47,32.0,87,75,11.18,UA,1580007604
520,buraydah,26.33,43.98,37.4,100,0,6.93,SA,1580007604
521,weinan,34.5,109.51,41.0,86,90,13.42,CN,1580007372
522,basco,20.45,121.97,79.38,79,85,18.59,PH,1580007380
523,angoram,-4.06,144.07,85.33,84,83,2.59,PG,1580007605
524,yendi,9.44,-0.01,69.13,9,0,5.66,GH,1580007605
525,najran,17.49,44.13,53.6,54,0,1.79,SA,1580007606
526,strezhevoy,60.73,77.59,-0.4,84,75,6.71,RU,1580007606
527,kalakamati,-20.59,27.31,67.91,61,6,10.56,BW,1580007606
528,prainha,-1.8,-53.48,74.55,97,99,1.88,BR,1580007606
529,rantepao,-2.97,119.9,83.14,62,73,2.91,ID,1580007607
530,san policarpo,12.18,125.51,81.01,84,2,9.1,PH,1580007607
531,kirakira,-10.45,161.92,84.58,77,3,7.16,SB,1580007607
532,pirgos,35.12,25.72,51.01,87,95,5.55,GR,1580007607
533,orocue,4.79,-71.34,81.5,46,16,6.17,CO,1580007607
534,quelimane,-17.88,36.89,71.78,91,99,4.45,MZ,1580007607
535,solnechnyy,50.72,136.63,-3.3,91,0,4.47,RU,1580007608
536,makokou,0.57,12.86,70.27,52,100,0.63,GA,1580007608
537,moyobamba,-6.05,-76.97,65.53,97,92,1.66,PE,1580007608
538,jackson,42.42,-122.83,50.0,93,90,3.09,US,1580007609
